{
    "Browser History": [
        {
            "page_transition": "LINK",
            "title": "Timeline",
            "url": "https://www.google.com/maps/timeline?pb\u003d!1m2!1m1!1s2016-12-12",
            "client_id": "87bMzbi85WKnoiuME3wK7g\u003d\u003d",
            "time_usec": 1481596160340777
},
        {
            "page_transition": "RELOAD",
            "title": "Timeline",
            "url": "https://www.google.com/maps/timeline?pb\u003d!1m2!1m1!1s2016-12-11",
            "client_id": "87bMzbi85WKnoiuME3wK7g\u003d\u003d",
            "time_usec": 1481596153573895
},
        {
            "page_transition": "RELOAD",
            "title": "Timeline",
            "url": "https://www.google.com/maps/timeline?pb\u003d!1m2!1m1!1s2016-12-10",
            "client_id": "87bMzbi85WKnoiuME3wK7g\u003d\u003d",
            "time_usec": 1481595764783116
},
        {
            "page_transition": "LINK",
            "title": "Timeline",
            "url": "https://www.google.com/maps/timeline?pb\u003d!1m2!1m1!1s2016-12-10",
            "client_id": "87bMzbi85WKnoiuME3wK7g\u003d\u003d",
            "time_usec": 1481439248350348
},
        {
            "page_transition": "LINK",
            "title": "Timeline",
            "url": "https://www.google.com/maps/timeline?pb\u003d!1m2!1m1!1s2016-12-11",
            "client_id": "87bMzbi85WKnoiuME3wK7g\u003d\u003d",
            "time_usec": 1481439209971023
},
        {
            "page_transition": "LINK",
            "title": "Timeline",
            "url": "https://www.google.com/maps/timeline?pb\u003d!1m2!1m1!1s2016-12-10",
            "client_id": "87bMzbi85WKnoiuME3wK7g\u003d\u003d",
            "time_usec": 1481439203626023
},
        {
            "page_transition": "LINK",
            "title": "Timeline",
            "url": "https://www.google.com/maps/timeline?pb\u003d!1m2!1m1!1s2016-12-11",
            "client_id": "87bMzbi85WKnoiuME3wK7g\u003d\u003d",
            "time_usec": 1481439197175968
},
        {
            "page_transition": "TYPED",
            "title": "Timeline",
            "url": "https://www.google.com/maps/timeline",
            "client_id": "87bMzbi85WKnoiuME3wK7g\u003d\u003d",
            "time_usec": 1481438975882667
},
        {
            "page_transition": "TYPED",
            "title": "Google Maps",
            "url": "https://www.google.com/maps/@35.7440926,-98.7426103,11z",
            "client_id": "87bMzbi85WKnoiuME3wK7g\u003d\u003d",
            "time_usec": 1481438968304396
},
        {
            "page_transition": "TYPED",
            "title": "Google Maps",
            "url": "https://www.google.com/maps/@35.7440926,-98.7426103,13z?nogmmr\u003d1",
            "client_id": "87bMzbi85WKnoiuME3wK7g\u003d\u003d",
            "time_usec": 1481438964670477
},
        {
            "page_transition": "LINK",
            "title": "My Account",
            "url": "https://myaccount.google.com/?hl\u003den",
            "client_id": "87bMzbi85WKnoiuME3wK7g\u003d\u003d",
            "time_usec": 1481438941900210
},
        {
            "page_transition": "LINK",
            "title": "Help Google Maps find my location - Android - Google Maps Help",
            "url": "https://support.google.com/maps/answer/1250066?p\u003dml_location_help\u0026hl\u003den\u0026visit_id\u003d1-636169501253786623-1060607601\u0026rd\u003d1",
            "client_id": "87bMzbi85WKnoiuME3wK7g\u003d\u003d",
            "time_usec": 1481438825652265
},
        {
            "page_transition": "TYPED",
            "title": "Google Maps",
            "url": "https://www.google.com/maps/@35.7440926,-98.7426103,13z",
            "client_id": "87bMzbi85WKnoiuME3wK7g\u003d\u003d",
            "time_usec": 1481438815002684
},
        {
            "page_transition": "TYPED",
            "title": "",
            "url": "https://www.google.com/maps/@?nogmmr\u003d1",
            "client_id": "87bMzbi85WKnoiuME3wK7g\u003d\u003d",
            "time_usec": 1481438811183321
},
        {
            "page_transition": "RELOAD",
            "title": "Google Maps",
            "url": "https://www.google.com/maps/@35.7440926,-98.7426103,11z",
            "client_id": "87bMzbi85WKnoiuME3wK7g\u003d\u003d",
            "time_usec": 1481438672110924
},
        {
            "page_transition": "RELOAD",
            "title": "Help Google Maps find my location - Android - Google Maps Help",
            "url": "https://support.google.com/maps/answer/1250066?p\u003dml_location_help\u0026hl\u003den\u0026visit_id\u003d1-636169501253786623-1060607601\u0026rd\u003d1",
            "client_id": "87bMzbi85WKnoiuME3wK7g\u003d\u003d",
            "time_usec": 1481438649790634
},
        {
            "page_transition": "LINK",
            "title": "35°50\u002711.4\"N 98°24\u002755.4\"W - Google Maps",
            "url": "https://www.google.com/maps/place/35%C2%B050\u002711.4%22N+98%C2%B024\u002755.4%22W/@35.8364955,-98.4153906,17z",
            "client_id": "87bMzbi85WKnoiuME3wK7g\u003d\u003d",
            "time_usec": 1481355512137183
},
        {
            "page_transition": "LINK",
            "title": "35°50\u002711.4\"N 98°24\u002755.4\"W - Google Maps",
            "url": "https://www.google.com/maps/place/35%C2%B050\u002711.4%22N+98%C2%B024\u002755.4%22W/@35.838265,-98.4162126,14z",
            "client_id": "87bMzbi85WKnoiuME3wK7g\u003d\u003d",
            "time_usec": 1481354513900145
},
        {
            "page_transition": "LINK",
            "title": "35°50\u002711.4\"N 98°24\u002755.4\"W - Google Maps",
            "url": "https://www.google.com/maps/place/35%C2%B050\u002711.4%22N+98%C2%B024\u002755.4%22W/@35.838265,-98.4162126,16z",
            "client_id": "87bMzbi85WKnoiuME3wK7g\u003d\u003d",
            "time_usec": 1481354473241359
},
        {
            "page_transition": "LINK",
            "title": "35°50\u002711.4\"N 98°24\u002755.4\"W - Google Maps",
            "url": "https://www.google.com/maps/place/35%C2%B050\u002711.4%22N+98%C2%B024\u002755.4%22W/@35.838265,-98.4162126,14z",
            "client_id": "87bMzbi85WKnoiuME3wK7g\u003d\u003d",
            "time_usec": 1481354327253891
},
        {
            "page_transition": "LINK",
            "title": "35°50\u002711.4\"N 98°24\u002755.4\"W - Google Maps",
            "url": "https://www.google.com/maps/place/35%C2%B050\u002711.4%22N+98%C2%B024\u002755.4%22W/@35.8364955,-98.4153906,17z",
            "client_id": "87bMzbi85WKnoiuME3wK7g\u003d\u003d",
            "time_usec": 1481354285647062
},
        {
            "page_transition": "RELOAD",
            "title": "Help Google Maps find my location - Android - Google Maps Help",
            "url": "https://support.google.com/maps/answer/1250066?p\u003dml_location_help\u0026hl\u003den\u0026visit_id\u003d1-636169501253786623-1060607601\u0026rd\u003d1",
            "client_id": "87bMzbi85WKnoiuME3wK7g\u003d\u003d",
            "time_usec": 1481354249847755
},
        {
            "page_transition": "LINK",
            "title": "35°38\u002701.2\"N 98°43\u002711.7\"W - Google Maps",
            "url": "https://www.google.com/maps/place/35%C2%B038\u002701.2%22N+98%C2%B043\u002711.7%22W/@35.7168342,-98.7136668,10z",
            "client_id": "87bMzbi85WKnoiuME3wK7g\u003d\u003d",
            "time_usec": 1481354241789931
},
        {
            "page_transition": "LINK",
            "title": "Google Maps",
            "url": "https://www.google.com/maps/search/35.6336818,-98.7199275/data\u003d!4m2!2m1!4b1?nogmmr\u003d1",
            "client_id": "87bMzbi85WKnoiuME3wK7g\u003d\u003d",
            "time_usec": 1481354227889555
},
        {
            "page_transition": "LINK",
            "title": "Help Google Maps find my location - Android - Google Maps Help",
            "url": "https://support.google.com/maps/answer/1250066?p\u003dml_location_help\u0026hl\u003den\u0026visit_id\u003d1-636169501253786623-1060607601\u0026rd\u003d1",
            "client_id": "87bMzbi85WKnoiuME3wK7g\u003d\u003d",
            "time_usec": 1481353325557236
},
        {
            "page_transition": "TYPED",
            "title": "Google Maps",
            "url": "https://www.google.com/maps/@35.7440926,-98.7426103,13z",
            "client_id": "87bMzbi85WKnoiuME3wK7g\u003d\u003d",
            "time_usec": 1481353298216173
},
        {
            "page_transition": "TYPED",
            "title": "",
            "url": "https://www.google.com/maps/@?nogmmr\u003d1",
            "client_id": "87bMzbi85WKnoiuME3wK7g\u003d\u003d",
            "time_usec": 1481353294145822
},
        {
            "page_transition": "RELOAD",
            "title": "(2) Alicia Howlingwater",
            "url": "https://www.facebook.com/alicia.howlingwater/allactivity?privacy_source\u003dactivity_log\u0026log_filter\u003dcluster_222\u0026__nodl#",
            "client_id": "87bMzbi85WKnoiuME3wK7g\u003d\u003d",
            "time_usec": 1481353288897939
},
        {
            "page_transition": "RELOAD",
            "title": "(2) Alicia Howlingwater",
            "url": "https://www.facebook.com/alicia.howlingwater/allactivity?privacy_source\u003dactivity_log\u0026log_filter\u003dcluster_222\u0026__nodl#",
            "client_id": "87bMzbi85WKnoiuME3wK7g\u003d\u003d",
            "time_usec": 1481353281325166
},
        {
            "page_transition": "AUTO_TOPLEVEL",
            "title": "Alicia Howlingwater",
            "url": "https://www.facebook.com/alicia.howlingwater/allactivity?privacy_source\u003dactivity_log\u0026log_filter\u003dcluster_222\u0026__nodl#",
            "client_id": "87bMzbi85WKnoiuME3wK7g\u003d\u003d",
            "time_usec": 1481352759938016
},
        {
            "page_transition": "LINK",
            "title": "Back up my data",
            "url": "https://hp.mcafeemobilesecurity.com/member/backup.aspx",
            "client_id": "87bMzbi85WKnoiuME3wK7g\u003d\u003d",
            "time_usec": 1481352676827640
},
        {
            "page_transition": "LINK",
            "title": "Locate my device",
            "url": "https://hp.mcafeemobilesecurity.com/member/location.aspx",
            "client_id": "87bMzbi85WKnoiuME3wK7g\u003d\u003d",
            "time_usec": 1481352669386857
},
        {
            "page_transition": "LINK",
            "title": "Find my device",
            "url": "https://hp.mcafeemobilesecurity.com/member/find-device.aspx",
            "client_id": "87bMzbi85WKnoiuME3wK7g\u003d\u003d",
            "time_usec": 1481352624549342
},
        {
            "page_transition": "LINK",
            "title": "Find my device",
            "url": "https://hp.mcafeemobilesecurity.com/member/find-device.aspx",
            "client_id": "87bMzbi85WKnoiuME3wK7g\u003d\u003d",
            "time_usec": 1481352616063265
},
        {
            "page_transition": "LINK",
            "title": "Subscription info",
            "url": "https://hp.mcafeemobilesecurity.com/member/Subscription.aspx",
            "client_id": "87bMzbi85WKnoiuME3wK7g\u003d\u003d",
            "time_usec": 1481352607588686
},
        {
            "page_transition": "LINK",
            "title": "Device info",
            "url": "https://hp.mcafeemobilesecurity.com/member/DeviceInfo.aspx",
            "client_id": "87bMzbi85WKnoiuME3wK7g\u003d\u003d",
            "time_usec": 1481352605012374
},
        {
            "page_transition": "LINK",
            "title": "Device info",
            "url": "https://hp.mcafeemobilesecurity.com/member/DeviceInfo.aspx",
            "client_id": "87bMzbi85WKnoiuME3wK7g\u003d\u003d",
            "time_usec": 1481352594419076
},
        {
            "page_transition": "LINK",
            "title": "Subscription info",
            "url": "https://hp.mcafeemobilesecurity.com/member/subscription.aspx",
            "client_id": "87bMzbi85WKnoiuME3wK7g\u003d\u003d",
            "time_usec": 1481352582546951
},
        {
            "page_transition": "LINK",
            "title": "See who\u2019s got your device with CaptureCam",
            "url": "https://hp.mcafeemobilesecurity.com/member/capturecam.aspx",
            "client_id": "87bMzbi85WKnoiuME3wK7g\u003d\u003d",
            "time_usec": 1481352574296255
},
        {
            "page_transition": "LINK",
            "title": "Locate my device",
            "url": "https://hp.mcafeemobilesecurity.com/member/location.aspx",
            "client_id": "87bMzbi85WKnoiuME3wK7g\u003d\u003d",
            "time_usec": 1481352565738586
},
        {
            "page_transition": "LINK",
            "title": "My photos and videos",
            "url": "https://hp.mcafeemobilesecurity.com/member/media.aspx",
            "client_id": "87bMzbi85WKnoiuME3wK7g\u003d\u003d",
            "time_usec": 1481352554058289
},
        {
            "page_transition": "LINK",
            "title": "My call logs",
            "url": "https://hp.mcafeemobilesecurity.com/member/calllogs.aspx",
            "client_id": "87bMzbi85WKnoiuME3wK7g\u003d\u003d",
            "time_usec": 1481352545950746
},
        {
            "page_transition": "LINK",
            "title": "My text messages",
            "url": "https://hp.mcafeemobilesecurity.com/member/sms.aspx",
            "client_id": "87bMzbi85WKnoiuME3wK7g\u003d\u003d",
            "time_usec": 1481352491033910
},
        {
            "page_transition": "LINK",
            "title": "My contacts",
            "url": "https://hp.mcafeemobilesecurity.com/member/contacts.aspx",
            "client_id": "87bMzbi85WKnoiuME3wK7g\u003d\u003d",
            "time_usec": 1481352312706040
},
        {
            "page_transition": "LINK",
            "title": "Track the SIM card in my device",
            "url": "https://hp.mcafeemobilesecurity.com/member/track.aspx",
            "client_id": "87bMzbi85WKnoiuME3wK7g\u003d\u003d",
            "time_usec": 1481352306140017
},
        {
            "page_transition": "LINK",
            "title": "Locate my device",
            "url": "https://hp.mcafeemobilesecurity.com/member/location.aspx",
            "client_id": "87bMzbi85WKnoiuME3wK7g\u003d\u003d",
            "time_usec": 1481352292973171
},
        {
            "page_transition": "LINK",
            "title": "See who\u2019s got your device with CaptureCam",
            "url": "https://hp.mcafeemobilesecurity.com/member/capturecam.aspx",
            "client_id": "87bMzbi85WKnoiuME3wK7g\u003d\u003d",
            "time_usec": 1481352239032195
},
        {
            "page_transition": "LINK",
            "title": "Locate my device",
            "url": "https://hp.mcafeemobilesecurity.com/member/location.aspx",
            "client_id": "87bMzbi85WKnoiuME3wK7g\u003d\u003d",
            "time_usec": 1481352232077791
},
        {
            "page_transition": "LINK",
            "title": "Locate my device",
            "url": "https://hp.mcafeemobilesecurity.com/member/location.aspx",
            "client_id": "87bMzbi85WKnoiuME3wK7g\u003d\u003d",
            "time_usec": 1481352203104409
},
        {
            "page_transition": "FORM_SUBMIT",
            "title": "Find my device",
            "url": "https://hp.mcafeemobilesecurity.com/member/find-device.aspx",
            "client_id": "87bMzbi85WKnoiuME3wK7g\u003d\u003d",
            "time_usec": 1481352168993292
},
        {
            "page_transition": "FORM_SUBMIT",
            "title": "Log in to find your lost device \u2013 and more",
            "url": "https://hp.mcafeemobilesecurity.com/login.aspx",
            "client_id": "87bMzbi85WKnoiuME3wK7g\u003d\u003d",
            "time_usec": 1481352156447231
},
        {
            "page_transition": "FORM_SUBMIT",
            "title": "Log in to find your lost device \u2013 and more",
            "url": "https://hp.mcafeemobilesecurity.com/login.aspx",
            "client_id": "87bMzbi85WKnoiuME3wK7g\u003d\u003d",
            "time_usec": 1481352138522377
},
        {
            "page_transition": "TYPED",
            "title": "Log in to find your lost device \u2013 and more",
            "url": "https://hp.mcafeemobilesecurity.com/login.aspx",
            "client_id": "87bMzbi85WKnoiuME3wK7g\u003d\u003d",
            "time_usec": 1481352126036034
},
        {
            "page_transition": "TYPED",
            "title": "McAfee Total Protection",
            "url": "https://promos.mcafee.com/offer.aspx?id\u003d1168277\u0026clickid\u003dwz%3AVL5QeF3MXymIykIWih0b2UkkV3cTJ0SLGSo0\u0026lqmcat\u003dAffiliate:IR:null:206606:13696:13696:null\u0026utm_medium\u003daffiliate\u0026utm_source\u003dIR\u0026affiliateProgramType\u003d1249",
            "client_id": "87bMzbi85WKnoiuME3wK7g\u003d\u003d",
            "time_usec": 1481352123181317
},
        {
            "page_transition": "LINK",
            "title": "Google Maps",
            "url": "https://www.google.com/maps/@35.7454954,-98.7416235,16z",
            "client_id": "87bMzbi85WKnoiuME3wK7g\u003d\u003d",
            "time_usec": 1481352079853616
},
        {
            "page_transition": "LINK",
            "title": "Google Maps",
            "url": "https://www.google.com/maps/@35.8045784,-98.720549,14.09z",
            "client_id": "87bMzbi85WKnoiuME3wK7g\u003d\u003d",
            "time_usec": 1481352072205167
},
        {
            "page_transition": "LINK",
            "title": "Google Maps",
            "url": "https://www.google.com/maps/@36.08465,-98.6133748,12.3z",
            "client_id": "87bMzbi85WKnoiuME3wK7g\u003d\u003d",
            "time_usec": 1481352069547257
},
        {
            "page_transition": "LINK",
            "title": "Google Maps",
            "url": "https://www.google.com/maps/@36.08465,-98.6133748,12.3z",
            "client_id": "87bMzbi85WKnoiuME3wK7g\u003d\u003d",
            "time_usec": 1481352069231856
},
        {
            "page_transition": "TYPED",
            "title": "Google Maps",
            "url": "https://www.google.com/maps/@35.7440926,-98.7426103,15z",
            "client_id": "87bMzbi85WKnoiuME3wK7g\u003d\u003d",
            "time_usec": 1481352068890036
},
        {
            "page_transition": "LINK",
            "title": "Google Maps",
            "url": "https://www.google.com/maps/@35.7589648,-98.6782397,12.3z",
            "client_id": "87bMzbi85WKnoiuME3wK7g\u003d\u003d",
            "time_usec": 1481352065332975
},
        {
            "page_transition": "LINK",
            "title": "Google Maps",
            "url": "https://www.google.com/maps/@35.7402636,-98.7287428,13.76z",
            "client_id": "87bMzbi85WKnoiuME3wK7g\u003d\u003d",
            "time_usec": 1481352049273531
},
        {
            "page_transition": "TYPED",
            "title": "Google Maps",
            "url": "https://www.google.com/maps/@35.7440926,-98.7426103,15z",
            "client_id": "87bMzbi85WKnoiuME3wK7g\u003d\u003d",
            "time_usec": 1481352044409888
},
        {
            "page_transition": "TYPED",
            "title": "Google Maps",
            "url": "https://www.google.com/maps/@35.7440926,-98.7426103,15z",
            "client_id": "87bMzbi85WKnoiuME3wK7g\u003d\u003d",
            "time_usec": 1481352038055809
},
        {
            "page_transition": "TYPED",
            "title": "",
            "url": "https://www.google.com/maps",
            "client_id": "87bMzbi85WKnoiuME3wK7g\u003d\u003d",
            "time_usec": 1481352030991499
},
        {
            "page_transition": "RELOAD",
            "title": "Google Maps",
            "url": "https://www.google.com/maps/@35.5533722,-98.6782031,2262m/data\u003d!3m1!1e3",
            "client_id": "87bMzbi85WKnoiuME3wK7g\u003d\u003d",
            "time_usec": 1481352026715538
},
        {
            "page_transition": "RELOAD",
            "title": "Google Maps",
            "url": "https://www.google.com/maps/@35.5533722,-98.6782031,2262m/data\u003d!3m1!1e3",
            "client_id": "87bMzbi85WKnoiuME3wK7g\u003d\u003d",
            "time_usec": 1481352020175460
},
        {
            "page_transition": "LINK",
            "title": "(2) Alicia Howlingwater",
            "url": "https://www.facebook.com/alicia.howlingwater/allactivity?privacy_source\u003dactivity_log\u0026log_filter\u003dcluster_222",
            "client_id": "87bMzbi85WKnoiuME3wK7g\u003d\u003d",
            "time_usec": 1481350794045418
},
        {
            "page_transition": "LINK",
            "title": "Alicia Howlingwater",
            "url": "https://www.facebook.com/alicia.howlingwater/allactivity",
            "client_id": "87bMzbi85WKnoiuME3wK7g\u003d\u003d",
            "time_usec": 1481350777305232
},
        {
            "page_transition": "LINK",
            "title": "Alicia Howlingwater",
            "url": "https://www.facebook.com/alicia.howlingwater",
            "client_id": "87bMzbi85WKnoiuME3wK7g\u003d\u003d",
            "time_usec": 1481350768893083
},
        {
            "page_transition": "TYPED",
            "title": "Facebook",
            "url": "https://www.facebook.com/?soft\u003dbookmarks",
            "client_id": "87bMzbi85WKnoiuME3wK7g\u003d\u003d",
            "time_usec": 1481350747254504
},
        {
            "page_transition": "TYPED",
            "title": "",
            "url": "https://www.facebook.com/?soft\u003dbookmarks",
            "client_id": "87bMzbi85WKnoiuME3wK7g\u003d\u003d",
            "time_usec": 1481350738559772
},
        {
            "page_transition": "LINK",
            "title": "Facebook",
            "url": "https://m.facebook.com/?soft\u003dbookmarks",
            "client_id": "87bMzbi85WKnoiuME3wK7g\u003d\u003d",
            "time_usec": 1481350730109686
},
        {
            "page_transition": "RELOAD",
            "title": "Facebook",
            "url": "https://m.facebook.com/",
            "client_id": "87bMzbi85WKnoiuME3wK7g\u003d\u003d",
            "time_usec": 1481350721564113
},
        {
            "page_transition": "TYPED",
            "title": "Facebook",
            "url": "https://m.facebook.com/?_rdr",
            "client_id": "87bMzbi85WKnoiuME3wK7g\u003d\u003d",
            "time_usec": 1481350708046677
},
        {
            "page_transition": "RELOAD",
            "title": "Google Maps Help",
            "url": "https://support.google.com/maps?hl\u003den#topic\u003d3092425",
            "client_id": "87bMzbi85WKnoiuME3wK7g\u003d\u003d",
            "time_usec": 1481350699290188
},
        {
            "page_transition": "LINK",
            "title": "Google Maps Help",
            "url": "https://support.google.com/maps?hl\u003den#topic\u003d3092425",
            "client_id": "87bMzbi85WKnoiuME3wK7g\u003d\u003d",
            "time_usec": 1481342139487356
},
        {
            "page_transition": "LINK",
            "title": "Timeline",
            "url": "https://www.google.com/maps/timeline?hl\u003den\u0026authuser\u003d0\u0026ei\u003dv3FJWLDpBMTUmwH6iqnYCg%3A4\u0026ved\u003d1t%3A17706\u0026pb\u003d!1m2!1m1!1s2016-12-09",
            "client_id": "87bMzbi85WKnoiuME3wK7g\u003d\u003d",
            "time_usec": 1481342019096135
},
        {
            "page_transition": "LINK",
            "title": "Timeline",
            "url": "https://www.google.com/maps/timeline?hl\u003den\u0026authuser\u003d0\u0026ei\u003dv3FJWLDpBMTUmwH6iqnYCg%3A4\u0026ved\u003d1t%3A17706\u0026pb",
            "client_id": "87bMzbi85WKnoiuME3wK7g\u003d\u003d",
            "time_usec": 1481342018288681
},
        {
            "page_transition": "LINK",
            "title": "Timeline",
            "url": "https://www.google.com/maps/timeline?hl\u003den\u0026authuser\u003d0\u0026ei\u003dv3FJWLDpBMTUmwH6iqnYCg%3A4\u0026ved\u003d1t%3A17706\u0026pb",
            "client_id": "87bMzbi85WKnoiuME3wK7g\u003d\u003d",
            "time_usec": 1481341987641738
},
        {
            "page_transition": "RELOAD",
            "title": "Timeline",
            "url": "https://www.google.com/maps/timeline?hl\u003den\u0026authuser\u003d0\u0026ei\u003dv3FJWLDpBMTUmwH6iqnYCg%3A4\u0026ved\u003d1t%3A17706\u0026pb\u003d!1m2!1m1!1s2016-12-08",
            "client_id": "87bMzbi85WKnoiuME3wK7g\u003d\u003d",
            "time_usec": 1481341975632921
},
        {
            "page_transition": "RELOAD",
            "title": "Timeline",
            "url": "https://www.google.com/maps/timeline?hl\u003den\u0026authuser\u003d0\u0026ei\u003dv3FJWLDpBMTUmwH6iqnYCg%3A4\u0026ved\u003d1t%3A17706\u0026pb\u003d!1m2!1m1!1s2016-12-08",
            "client_id": "87bMzbi85WKnoiuME3wK7g\u003d\u003d",
            "time_usec": 1481219444252657
},
        {
            "page_transition": "RELOAD",
            "title": "Timeline",
            "url": "https://www.google.com/maps/timeline?hl\u003den\u0026authuser\u003d0\u0026ei\u003dv3FJWLDpBMTUmwH6iqnYCg%3A4\u0026ved\u003d1t%3A17706\u0026pb\u003d!1m2!1m1!1s2016-12-08",
            "client_id": "87bMzbi85WKnoiuME3wK7g\u003d\u003d",
            "time_usec": 1481219389516677
},
        {
            "page_transition": "LINK",
            "title": "35°32\u002732.6\"N 98°39\u002741.6\"W - Google Maps",
            "url": "https://www.google.com/maps/place/35%C2%B032\u002732.6%22N+98%C2%B039\u002741.6%22W/@35.5467999,-98.6607552,14z",
            "client_id": "87bMzbi85WKnoiuME3wK7g\u003d\u003d",
            "time_usec": 1481219221458186
},
        {
            "page_transition": "LINK",
            "title": "35°32\u002732.6\"N 98°39\u002741.6\"W - Google Maps",
            "url": "https://www.google.com/maps/place/35%C2%B032\u002732.6%22N+98%C2%B039\u002741.6%22W/@35.5423873,-98.6615554,17z",
            "client_id": "87bMzbi85WKnoiuME3wK7g\u003d\u003d",
            "time_usec": 1481219206412596
},
        {
            "page_transition": "LINK",
            "title": "Google Maps",
            "url": "https://www.google.com/maps/@35.5533722,-98.6782031,2262m/data\u003d!3m1!1e3",
            "client_id": "87bMzbi85WKnoiuME3wK7g\u003d\u003d",
            "time_usec": 1481217823772088
},
        {
            "page_transition": "RELOAD",
            "title": "Google Maps",
            "url": "https://www.google.com/maps/@35.5576597,-98.6762738,839m/data\u003d!3m1!1e3",
            "client_id": "87bMzbi85WKnoiuME3wK7g\u003d\u003d",
            "time_usec": 1481217805335839
},
        {
            "page_transition": "LINK",
            "title": "Google Maps",
            "url": "https://www.google.com/maps/@35.5576597,-98.6762738,839m/data\u003d!3m1!1e3",
            "client_id": "87bMzbi85WKnoiuME3wK7g\u003d\u003d",
            "time_usec": 1481217733213578
},
        {
            "page_transition": "LINK",
            "title": "Google Maps",
            "url": "https://www.google.com/maps/@35.5490065,-98.6791196,1646m/data\u003d!3m1!1e3",
            "client_id": "87bMzbi85WKnoiuME3wK7g\u003d\u003d",
            "time_usec": 1481217721610941
},
        {
            "page_transition": "LINK",
            "title": "Google Maps",
            "url": "https://www.google.com/maps/@35.5461027,-98.7106076,3499m/data\u003d!3m1!1e3",
            "client_id": "87bMzbi85WKnoiuME3wK7g\u003d\u003d",
            "time_usec": 1481217711083309
},
        {
            "page_transition": "RELOAD",
            "title": "Google Maps",
            "url": "https://www.google.com/maps/@35.5302872,-98.6985717,1741m/data\u003d!3m1!1e3",
            "client_id": "87bMzbi85WKnoiuME3wK7g\u003d\u003d",
            "time_usec": 1481217683818581
},
        {
            "page_transition": "RELOAD",
            "title": "Google Maps",
            "url": "https://www.google.com/maps/@35.5302872,-98.6985717,1741m/data\u003d!3m1!1e3",
            "client_id": "87bMzbi85WKnoiuME3wK7g\u003d\u003d",
            "time_usec": 1481217669550007
},
        {
            "page_transition": "LINK",
            "title": "Google Maps",
            "url": "https://www.google.com/maps/@35.5302872,-98.6985717,1741m/data\u003d!3m1!1e3",
            "client_id": "87bMzbi85WKnoiuME3wK7g\u003d\u003d",
            "time_usec": 1481217601583701
},
        {
            "page_transition": "TYPED",
            "title": "Google Maps",
            "url": "https://www.google.com/maps/@35.5302872,-98.6985717,15z",
            "client_id": "87bMzbi85WKnoiuME3wK7g\u003d\u003d",
            "time_usec": 1481217582927630
},
        {
            "page_transition": "TYPED",
            "title": "Google Maps",
            "url": "https://www.google.com/maps/@35.5302872,-98.6985717,15z",
            "client_id": "87bMzbi85WKnoiuME3wK7g\u003d\u003d",
            "time_usec": 1481217576152386
},
        {
            "page_transition": "TYPED",
            "title": "",
            "url": "https://www.google.com/maps",
            "client_id": "87bMzbi85WKnoiuME3wK7g\u003d\u003d",
            "time_usec": 1481217567837466
},
        {
            "page_transition": "RELOAD",
            "title": "Timeline",
            "url": "https://www.google.com/maps/timeline?pb\u003d!1m2!1m1!1s2016-12-08",
            "client_id": "87bMzbi85WKnoiuME3wK7g\u003d\u003d",
            "time_usec": 1481217543889894
},
        {
            "page_transition": "RELOAD",
            "title": "Timeline",
            "url": "https://www.google.com/maps/timeline?pb\u003d!1m2!1m1!1s2016-12-08",
            "client_id": "87bMzbi85WKnoiuME3wK7g\u003d\u003d",
            "time_usec": 1481217485640687
},
        {
            "page_transition": "LINK",
            "title": "Timeline",
            "url": "https://www.google.com/maps/timeline?pb\u003d!1m2!1m1!1s2016-12-08",
            "client_id": "87bMzbi85WKnoiuME3wK7g\u003d\u003d",
            "time_usec": 1481217374951662
},
        {
            "page_transition": "TYPED",
            "title": "Timeline",
            "url": "https://www.google.com/maps/timeline",
            "client_id": "87bMzbi85WKnoiuME3wK7g\u003d\u003d",
            "time_usec": 1481217365301975
},
        {
            "page_transition": "TYPED",
            "title": "Timeline",
            "url": "https://www.google.com/maps/timeline",
            "client_id": "87bMzbi85WKnoiuME3wK7g\u003d\u003d",
            "time_usec": 1481217355997644
},
        {
            "page_transition": "TYPED",
            "title": "Timeline",
            "url": "https://www.google.com/maps/timeline",
            "client_id": "87bMzbi85WKnoiuME3wK7g\u003d\u003d",
            "time_usec": 1481217345698112
},
        {
            "page_transition": "TYPED",
            "title": "Timeline",
            "url": "https://www.google.com/maps/timeline",
            "client_id": "87bMzbi85WKnoiuME3wK7g\u003d\u003d",
            "time_usec": 1481217327202800
},
        {
            "page_transition": "TYPED",
            "title": "Timeline",
            "url": "https://www.google.com/maps/timeline",
            "client_id": "87bMzbi85WKnoiuME3wK7g\u003d\u003d",
            "time_usec": 1481217313787496
},
        {
            "page_transition": "TYPED",
            "title": "",
            "url": "https://www.google.com/maps/timeline",
            "client_id": "87bMzbi85WKnoiuME3wK7g\u003d\u003d",
            "time_usec": 1481217296330453
},
        {
            "page_transition": "LINK",
            "title": "Google Maps",
            "url": "https://www.google.com/maps/@35.5313235,-98.734799,13.4z",
            "client_id": "87bMzbi85WKnoiuME3wK7g\u003d\u003d",
            "time_usec": 1481217282939971
},
        {
            "page_transition": "LINK",
            "title": "Google Maps",
            "url": "https://www.google.com/maps/@35.7244953,-98.767384,13.4z",
            "client_id": "87bMzbi85WKnoiuME3wK7g\u003d\u003d",
            "time_usec": 1481217274970783
},
        {
            "page_transition": "RELOAD",
            "title": "Google Maps",
            "url": "https://www.google.com/maps/@35.7502832,-98.7462505,14z",
            "client_id": "87bMzbi85WKnoiuME3wK7g\u003d\u003d",
            "time_usec": 1481217263131955
},
        {
            "page_transition": "RELOAD",
            "title": "Google Maps",
            "url": "https://www.google.com/maps/@35.7502832,-98.7462505,14.71z",
            "client_id": "87bMzbi85WKnoiuME3wK7g\u003d\u003d",
            "time_usec": 1481217250167538
},
        {
            "page_transition": "RELOAD",
            "title": "Timeline",
            "url": "https://www.google.com/maps/timeline?hl\u003den\u0026authuser\u003d0\u0026ei\u003dv3FJWLDpBMTUmwH6iqnYCg%3A4\u0026ved\u003d1t%3A17706\u0026pb\u003d!1m2!1m1!1s2016-12-08",
            "client_id": "87bMzbi85WKnoiuME3wK7g\u003d\u003d",
            "time_usec": 1481217236941589
},
        {
            "page_transition": "RELOAD",
            "title": "Timeline",
            "url": "https://www.google.com/maps/timeline?hl\u003den\u0026authuser\u003d0\u0026ei\u003dv3FJWLDpBMTUmwH6iqnYCg%3A4\u0026ved\u003d1t%3A17706\u0026pb\u003d!1m2!1m1!1s2016-12-08",
            "client_id": "87bMzbi85WKnoiuME3wK7g\u003d\u003d",
            "time_usec": 1481214941110361
},
        {
            "page_transition": "RELOAD",
            "title": "Timeline",
            "url": "https://www.google.com/maps/timeline?hl\u003den\u0026authuser\u003d0\u0026ei\u003dv3FJWLDpBMTUmwH6iqnYCg%3A4\u0026ved\u003d1t%3A17706\u0026pb\u003d!1m2!1m1!1s2016-12-08",
            "client_id": "87bMzbi85WKnoiuME3wK7g\u003d\u003d",
            "time_usec": 1481213943235102
},
        {
            "page_transition": "RELOAD",
            "title": "Timeline",
            "url": "https://www.google.com/maps/timeline?hl\u003den\u0026authuser\u003d0\u0026ei\u003dv3FJWLDpBMTUmwH6iqnYCg%3A4\u0026ved\u003d1t%3A17706\u0026pb\u003d!1m2!1m1!1s2016-12-08",
            "client_id": "87bMzbi85WKnoiuME3wK7g\u003d\u003d",
            "time_usec": 1481212581930842
},
        {
            "page_transition": "RELOAD",
            "title": "Timeline",
            "url": "https://www.google.com/maps/timeline?hl\u003den\u0026authuser\u003d0\u0026ei\u003dv3FJWLDpBMTUmwH6iqnYCg%3A4\u0026ved\u003d1t%3A17706\u0026pb\u003d!1m2!1m1!1s2016-12-08",
            "client_id": "87bMzbi85WKnoiuME3wK7g\u003d\u003d",
            "time_usec": 1481212554668376
},
        {
            "page_transition": "RELOAD",
            "title": "Timeline",
            "url": "https://www.google.com/maps/timeline?hl\u003den\u0026authuser\u003d0\u0026ei\u003dv3FJWLDpBMTUmwH6iqnYCg%3A4\u0026ved\u003d1t%3A17706\u0026pb\u003d!1m2!1m1!1s2016-12-08",
            "client_id": "87bMzbi85WKnoiuME3wK7g\u003d\u003d",
            "time_usec": 1481212534791717
},
        {
            "page_transition": "LINK",
            "title": "Timeline",
            "url": "https://www.google.com/maps/timeline?hl\u003den\u0026authuser\u003d0\u0026ei\u003dv3FJWLDpBMTUmwH6iqnYCg%3A4\u0026ved\u003d1t%3A17706\u0026pb\u003d!1m2!1m1!1s2016-12-08",
            "client_id": "87bMzbi85WKnoiuME3wK7g\u003d\u003d",
            "time_usec": 1481208302465155
},
        {
            "page_transition": "LINK",
            "title": "Timeline",
            "url": "https://www.google.com/maps/timeline?hl\u003den\u0026authuser\u003d0\u0026ei\u003dv3FJWLDpBMTUmwH6iqnYCg%3A4\u0026ved\u003d1t%3A17706",
            "client_id": "87bMzbi85WKnoiuME3wK7g\u003d\u003d",
            "time_usec": 1481208289882528
},
        {
            "page_transition": "LINK",
            "title": "Google Maps",
            "url": "https://www.google.com/maps/@35.7502832,-98.7462505,14.71z",
            "client_id": "87bMzbi85WKnoiuME3wK7g\u003d\u003d",
            "time_usec": 1481208278524212
},
        {
            "page_transition": "RELOAD",
            "title": "Google Maps",
            "url": "https://www.google.com/maps/@35.7505689,-98.7460781,14z",
            "client_id": "87bMzbi85WKnoiuME3wK7g\u003d\u003d",
            "time_usec": 1481208270685475
},
        {
            "page_transition": "RELOAD",
            "title": "Google Maps",
            "url": "https://www.google.com/maps/@35.7505689,-98.7460781,14z",
            "client_id": "87bMzbi85WKnoiuME3wK7g\u003d\u003d",
            "time_usec": 1481208263703304
},
        {
            "page_transition": "LINK",
            "title": "Google Maps",
            "url": "https://www.google.com/maps/@35.7505689,-98.7460781,14.86z",
            "client_id": "87bMzbi85WKnoiuME3wK7g\u003d\u003d",
            "time_usec": 1481208048700189
},
        {
            "page_transition": "RELOAD",
            "title": "Google Maps",
            "url": "https://www.google.com/maps/@35.7437241,-98.745117,19z",
            "client_id": "87bMzbi85WKnoiuME3wK7g\u003d\u003d",
            "time_usec": 1481208044962283
},
        {
            "page_transition": "RELOAD",
            "title": "Google Maps",
            "url": "https://www.google.com/maps/@35.7437241,-98.745117,19z",
            "client_id": "87bMzbi85WKnoiuME3wK7g\u003d\u003d",
            "time_usec": 1481208035780484
},
        {
            "page_transition": "LINK",
            "title": "Google Maps",
            "url": "https://www.google.com/maps/@35.7437241,-98.745117,19z",
            "client_id": "87bMzbi85WKnoiuME3wK7g\u003d\u003d",
            "time_usec": 1481208025188290
},
        {
            "page_transition": "RELOAD",
            "title": "Google Maps",
            "url": "https://www.google.com/maps/@35.7437241,-98.745117,19z",
            "client_id": "87bMzbi85WKnoiuME3wK7g\u003d\u003d",
            "time_usec": 1481208015688840
},
        {
            "page_transition": "RELOAD",
            "title": "Google Maps",
            "url": "https://www.google.com/maps/@35.7437241,-98.745117,19z",
            "client_id": "87bMzbi85WKnoiuME3wK7g\u003d\u003d",
            "time_usec": 1481208004949278
},
        {
            "page_transition": "LINK",
            "title": "Google Maps",
            "url": "https://www.google.com/maps/@35.7437241,-98.745117,19.12z",
            "client_id": "87bMzbi85WKnoiuME3wK7g\u003d\u003d",
            "time_usec": 1481207949688934
},
        {
            "page_transition": "LINK",
            "title": "Google Maps",
            "url": "https://www.google.com/maps/@35.7430439,-98.7387118,16.73z",
            "client_id": "87bMzbi85WKnoiuME3wK7g\u003d\u003d",
            "time_usec": 1481207940313254
},
        {
            "page_transition": "LINK",
            "title": "Google Maps",
            "url": "https://www.google.com/maps/@35.8840673,-98.7157668,11z",
            "client_id": "87bMzbi85WKnoiuME3wK7g\u003d\u003d",
            "time_usec": 1481207928867218
},
        {
            "page_transition": "RELOAD",
            "title": "Google Maps",
            "url": "https://www.google.com/maps/@36.9968852,-98.6934968,11z",
            "client_id": "87bMzbi85WKnoiuME3wK7g\u003d\u003d",
            "time_usec": 1481207918041814
},
        {
            "page_transition": "RELOAD",
            "title": "Google Maps",
            "url": "https://www.google.com/maps/@36.9968852,-98.6934968,11z",
            "client_id": "87bMzbi85WKnoiuME3wK7g\u003d\u003d",
            "time_usec": 1481207912283979
},
        {
            "page_transition": "RELOAD",
            "title": "",
            "url": "https://www.google.com/maps/@36.9968852,-98.6934968,11z",
            "client_id": "87bMzbi85WKnoiuME3wK7g\u003d\u003d",
            "time_usec": 1481207902903229
},
        {
            "page_transition": "LINK",
            "title": "Google Maps",
            "url": "https://www.google.com/maps/@36.9968852,-98.6934968,11z",
            "client_id": "87bMzbi85WKnoiuME3wK7g\u003d\u003d",
            "time_usec": 1481207901089602
},
        {
            "page_transition": "LINK",
            "title": "Google Maps",
            "url": "https://www.google.com/maps/@36.4593963,-98.9073175,11z",
            "client_id": "87bMzbi85WKnoiuME3wK7g\u003d\u003d",
            "time_usec": 1481207880524824
},
        {
            "page_transition": "LINK",
            "title": "Google Maps",
            "url": "https://www.google.com/maps/@36.4593963,-98.9073175,10z",
            "client_id": "87bMzbi85WKnoiuME3wK7g\u003d\u003d",
            "time_usec": 1481207858276822
},
        {
            "page_transition": "LINK",
            "title": "Google Maps",
            "url": "https://www.google.com/maps/@36.5705647,-98.8250725,10z",
            "client_id": "87bMzbi85WKnoiuME3wK7g\u003d\u003d",
            "time_usec": 1481207851826694
},
        {
            "page_transition": "LINK",
            "title": "Google Maps",
            "url": "https://www.google.com/maps/@37.241474,-98.6080843,10z",
            "client_id": "87bMzbi85WKnoiuME3wK7g\u003d\u003d",
            "time_usec": 1481207842485800
},
        {
            "page_transition": "LINK",
            "title": "Google Maps",
            "url": "https://www.google.com/maps/@37.241474,-98.6080843,191588m/data\u003d!3m1!1e3",
            "client_id": "87bMzbi85WKnoiuME3wK7g\u003d\u003d",
            "time_usec": 1481207826552628
},
        {
            "page_transition": "LINK",
            "title": "Google Maps",
            "url": "https://www.google.com/maps/@37.241474,-98.6080843,10z",
            "client_id": "87bMzbi85WKnoiuME3wK7g\u003d\u003d",
            "time_usec": 1481207813966452
},
        {
            "page_transition": "RELOAD",
            "title": "Google Maps",
            "url": "https://www.google.com/maps/@35.7264046,-98.6091502,10z",
            "client_id": "87bMzbi85WKnoiuME3wK7g\u003d\u003d",
            "time_usec": 1481207806303910
},
        {
            "page_transition": "LINK",
            "title": "Google Maps",
            "url": "https://www.google.com/maps/@35.7533217,-98.7401166,18.21z",
            "client_id": "87bMzbi85WKnoiuME3wK7g\u003d\u003d",
            "time_usec": 1481207802226144
},
        {
            "page_transition": "LINK",
            "title": "Google Maps",
            "url": "https://www.google.com/maps/@35.7447486,-98.7405694,18.21z",
            "client_id": "87bMzbi85WKnoiuME3wK7g\u003d\u003d",
            "time_usec": 1481207787986011
},
        {
            "page_transition": "LINK",
            "title": "Google Maps",
            "url": "https://www.google.com/maps/@35.7433166,-98.7410073,16.16z",
            "client_id": "87bMzbi85WKnoiuME3wK7g\u003d\u003d",
            "time_usec": 1481207778639074
},
        {
            "page_transition": "LINK",
            "title": "Google Maps",
            "url": "https://www.google.com/maps/@35.7437292,-98.741499,16.95z",
            "client_id": "87bMzbi85WKnoiuME3wK7g\u003d\u003d",
            "time_usec": 1481207770709310
},
        {
            "page_transition": "LINK",
            "title": "Google Maps",
            "url": "https://www.google.com/maps/@35.7388435,-98.7394938,14.79z",
            "client_id": "87bMzbi85WKnoiuME3wK7g\u003d\u003d",
            "time_usec": 1481207769109862
},
        {
            "page_transition": "LINK",
            "title": "Google Maps",
            "url": "https://www.google.com/maps/@35.9309651,-98.7242057,11.21z",
            "client_id": "87bMzbi85WKnoiuME3wK7g\u003d\u003d",
            "time_usec": 1481207756649334
},
        {
            "page_transition": "RELOAD",
            "title": "Google Maps",
            "url": "https://www.google.com/maps/@35.7264046,-98.6091502,10z",
            "client_id": "87bMzbi85WKnoiuME3wK7g\u003d\u003d",
            "time_usec": 1481207743467240
},
        {
            "page_transition": "RELOAD",
            "title": "Google Maps",
            "url": "https://www.google.com/maps/@35.7264046,-98.6091502,10z",
            "client_id": "87bMzbi85WKnoiuME3wK7g\u003d\u003d",
            "time_usec": 1481207728797372
},
        {
            "page_transition": "RELOAD",
            "title": "Timeline",
            "url": "https://www.google.com/maps/timeline?hl\u003den\u0026authuser\u003d0\u0026ved\u003d1t%3A17706\u0026pb\u003d!1m2!1m1!1s2016-12-07",
            "client_id": "87bMzbi85WKnoiuME3wK7g\u003d\u003d",
            "time_usec": 1481207709278494
},
        {
            "page_transition": "LINK",
            "title": "Timeline",
            "url": "https://www.google.com/maps/timeline?hl\u003den\u0026authuser\u003d0\u0026ved\u003d1t%3A17706\u0026pb\u003d!1m2!1m1!1s2016-12-07",
            "client_id": "87bMzbi85WKnoiuME3wK7g\u003d\u003d",
            "time_usec": 1481126561412089
},
        {
            "page_transition": "LINK",
            "title": "Timeline",
            "url": "https://www.google.com/maps/timeline?hl\u003den\u0026authuser\u003d0\u0026ved\u003d1t%3A17706\u0026pb\u003d!1m2!1m1!1s2016-12-06",
            "client_id": "87bMzbi85WKnoiuME3wK7g\u003d\u003d",
            "time_usec": 1481126551319545
},
        {
            "page_transition": "LINK",
            "title": "Timeline",
            "url": "https://www.google.com/maps/timeline?hl\u003den\u0026authuser\u003d0\u0026ved\u003d1t%3A17706\u0026pb\u003d!1m2!1m1!1s2016-12-07",
            "client_id": "87bMzbi85WKnoiuME3wK7g\u003d\u003d",
            "time_usec": 1481126546671544
},
        {
            "page_transition": "RELOAD",
            "title": "Timeline",
            "url": "https://www.google.com/maps/timeline?hl\u003den\u0026authuser\u003d0\u0026ved\u003d1t%3A17706\u0026pb\u003d!1m2!1m1!1s2016-12-06",
            "client_id": "87bMzbi85WKnoiuME3wK7g\u003d\u003d",
            "time_usec": 1481126480532016
},
        {
            "page_transition": "RELOAD",
            "title": "Timeline",
            "url": "https://www.google.com/maps/timeline?hl\u003den\u0026authuser\u003d0\u0026ved\u003d1t%3A17706\u0026pb\u003d!1m2!1m1!1s2016-12-06",
            "client_id": "87bMzbi85WKnoiuME3wK7g\u003d\u003d",
            "time_usec": 1481100234449863
},
        {
            "page_transition": "LINK",
            "title": "Timeline",
            "url": "https://www.google.com/maps/timeline?hl\u003den\u0026authuser\u003d0\u0026ved\u003d1t%3A17706\u0026pb\u003d!1m2!1m1!1s2016-12-06",
            "client_id": "87bMzbi85WKnoiuME3wK7g\u003d\u003d",
            "time_usec": 1481100219517832
},
        {
            "page_transition": "LINK",
            "title": "Timeline",
            "url": "https://www.google.com/maps/timeline?hl\u003den\u0026authuser\u003d0\u0026ved\u003d1t%3A17706\u0026pb\u003d!1m2!1m1!1s2016-12-07",
            "client_id": "87bMzbi85WKnoiuME3wK7g\u003d\u003d",
            "time_usec": 1481100211061464
},
        {
            "page_transition": "RELOAD",
            "title": "Timeline",
            "url": "https://www.google.com/maps/timeline?hl\u003den\u0026authuser\u003d0\u0026ved\u003d1t%3A17706\u0026pb\u003d!1m2!1m1!1s2016-12-02",
            "client_id": "87bMzbi85WKnoiuME3wK7g\u003d\u003d",
            "time_usec": 1481100196708236
},
        {
            "page_transition": "LINK",
            "title": "Timeline",
            "url": "https://www.google.com/maps/timeline?hl\u003den\u0026authuser\u003d0\u0026ved\u003d1t%3A17706\u0026pb\u003d!1m2!1m1!1s2016-12-02",
            "client_id": "87bMzbi85WKnoiuME3wK7g\u003d\u003d",
            "time_usec": 1481093999668198
},
        {
            "page_transition": "LINK",
            "title": "Timeline",
            "url": "https://www.google.com/maps/timeline?hl\u003den\u0026authuser\u003d0\u0026ved\u003d1t%3A17706\u0026pb\u003d!1m2!1m1!1s2016-12-03",
            "client_id": "87bMzbi85WKnoiuME3wK7g\u003d\u003d",
            "time_usec": 1481093872138410
},
        {
            "page_transition": "LINK",
            "title": "Timeline",
            "url": "https://www.google.com/maps/timeline?hl\u003den\u0026authuser\u003d0\u0026ved\u003d1t%3A17706\u0026pb\u003d!1m2!1m1!1s2016-12-04",
            "client_id": "87bMzbi85WKnoiuME3wK7g\u003d\u003d",
            "time_usec": 1481093868876720
},
        {
            "page_transition": "LINK",
            "title": "Timeline",
            "url": "https://www.google.com/maps/timeline?hl\u003den\u0026authuser\u003d0\u0026ved\u003d1t%3A17706\u0026pb\u003d!1m2!1m1!1s2016-12-03",
            "client_id": "87bMzbi85WKnoiuME3wK7g\u003d\u003d",
            "time_usec": 1481093814120255
},
        {
            "page_transition": "LINK",
            "title": "Timeline",
            "url": "https://www.google.com/maps/timeline?hl\u003den\u0026authuser\u003d0\u0026ved\u003d1t%3A17706\u0026pb\u003d!1m2!1m1!1s2016-12-04",
            "client_id": "87bMzbi85WKnoiuME3wK7g\u003d\u003d",
            "time_usec": 1481093809968408
},
        {
            "page_transition": "LINK",
            "title": "Timeline",
            "url": "https://www.google.com/maps/timeline?hl\u003den\u0026authuser\u003d0\u0026ved\u003d1t%3A17706\u0026pb\u003d!1m2!1m1!1s2016-12-05",
            "client_id": "87bMzbi85WKnoiuME3wK7g\u003d\u003d",
            "time_usec": 1481093804879931
},
        {
            "page_transition": "LINK",
            "title": "Timeline",
            "url": "https://www.google.com/maps/timeline?hl\u003den\u0026authuser\u003d0\u0026ved\u003d1t%3A17706\u0026pb\u003d!1m2!1m1!1s2016-12-06",
            "client_id": "87bMzbi85WKnoiuME3wK7g\u003d\u003d",
            "time_usec": 1481093803052729
},
        {
            "page_transition": "LINK",
            "title": "Timeline",
            "url": "https://www.google.com/maps/timeline?hl\u003den\u0026authuser\u003d0\u0026ved\u003d1t%3A17706\u0026pb\u003d!1m2!1m1!1s2016-12-07",
            "client_id": "87bMzbi85WKnoiuME3wK7g\u003d\u003d",
            "time_usec": 1481093799352819
},
        {
            "page_transition": "RELOAD",
            "title": "Timeline",
            "url": "https://www.google.com/maps/timeline?hl\u003den\u0026authuser\u003d0\u0026ved\u003d1t%3A17706\u0026pb\u003d!1m2!1m1!1s2016-12-06",
            "client_id": "87bMzbi85WKnoiuME3wK7g\u003d\u003d",
            "time_usec": 1481093786881937
},
        {
            "page_transition": "LINK",
            "title": "Timeline",
            "url": "https://www.google.com/maps/timeline?hl\u003den\u0026authuser\u003d0\u0026ved\u003d1t%3A17706\u0026pb\u003d!1m2!1m1!1s2016-12-06",
            "client_id": "87bMzbi85WKnoiuME3wK7g\u003d\u003d",
            "time_usec": 1481093743534385
},
        {
            "page_transition": "LINK",
            "title": "Timeline",
            "url": "https://www.google.com/maps/timeline?hl\u003den\u0026authuser\u003d0\u0026ved\u003d1t%3A17706\u0026pb\u003d!1m2!1m1!1s2016-12-07",
            "client_id": "87bMzbi85WKnoiuME3wK7g\u003d\u003d",
            "time_usec": 1481093736565119
},
        {
            "page_transition": "RELOAD",
            "title": "Timeline",
            "url": "https://www.google.com/maps/timeline?hl\u003den\u0026authuser\u003d0\u0026ved\u003d1t%3A17706\u0026pb\u003d!1m2!1m1!1s2016-12-06",
            "client_id": "87bMzbi85WKnoiuME3wK7g\u003d\u003d",
            "time_usec": 1481093050215934
},
        {
            "page_transition": "LINK",
            "title": "35°38\u002701.2\"N 98°43\u002711.7\"W - Google Maps",
            "url": "https://www.google.com/maps/place/35%C2%B038\u002701.2%22N+98%C2%B043\u002711.7%22W/@35.6601473,-98.7667801,10z",
            "client_id": "87bMzbi85WKnoiuME3wK7g\u003d\u003d",
            "time_usec": 1481093047033281
},
        {
            "page_transition": "LINK",
            "title": "35°38\u002701.2\"N 98°43\u002711.7\"W - Google Maps",
            "url": "https://www.google.com/maps/place/35%C2%B038\u002701.2%22N+98%C2%B043\u002711.7%22W/@35.6336818,-98.7199275,17z",
            "client_id": "87bMzbi85WKnoiuME3wK7g\u003d\u003d",
            "time_usec": 1481093028901333
},
        {
            "page_transition": "LINK",
            "title": "Google Maps",
            "url": "https://www.google.com/maps/search/35.6336818,-98.7199275/data\u003d!4m2!2m1!4b1?nogmmr\u003d1",
            "client_id": "87bMzbi85WKnoiuME3wK7g\u003d\u003d",
            "time_usec": 1481093025535179
},
        {
            "page_transition": "RELOAD",
            "title": "Timeline",
            "url": "https://www.google.com/maps/timeline?hl\u003den\u0026authuser\u003d0\u0026ved\u003d1t%3A17706\u0026pb\u003d!1m2!1m1!1s2016-12-06",
            "client_id": "87bMzbi85WKnoiuME3wK7g\u003d\u003d",
            "time_usec": 1481085375166110
},
        {
            "page_transition": "RELOAD",
            "title": "Timeline",
            "url": "https://www.google.com/maps/timeline?hl\u003den\u0026authuser\u003d0\u0026ved\u003d1t%3A17706\u0026pb\u003d!1m2!1m1!1s2016-12-06",
            "client_id": "87bMzbi85WKnoiuME3wK7g\u003d\u003d",
            "time_usec": 1481085354656951
},
        {
            "page_transition": "RELOAD",
            "title": "Timeline",
            "url": "https://www.google.com/maps/timeline?hl\u003den\u0026authuser\u003d0\u0026ved\u003d1t%3A17706\u0026pb\u003d!1m2!1m1!1s2016-12-06",
            "client_id": "87bMzbi85WKnoiuME3wK7g\u003d\u003d",
            "time_usec": 1481084939523036
},
        {
            "page_transition": "RELOAD",
            "title": "Timeline",
            "url": "https://www.google.com/maps/timeline?hl\u003den\u0026authuser\u003d0\u0026ved\u003d1t%3A17706\u0026pb\u003d!1m2!1m1!1s2016-12-06",
            "client_id": "87bMzbi85WKnoiuME3wK7g\u003d\u003d",
            "time_usec": 1481083912689064
},
        {
            "page_transition": "RELOAD",
            "title": "Timeline",
            "url": "https://www.google.com/maps/timeline?hl\u003den\u0026authuser\u003d0\u0026ved\u003d1t%3A17706\u0026pb\u003d!1m2!1m1!1s2016-12-06",
            "client_id": "87bMzbi85WKnoiuME3wK7g\u003d\u003d",
            "time_usec": 1481082863176001
},
        {
            "page_transition": "LINK",
            "title": "Timeline",
            "url": "https://www.google.com/maps/timeline?hl\u003den\u0026authuser\u003d0\u0026ved\u003d1t%3A17706\u0026pb\u003d!1m2!1m1!1s2016-12-06",
            "client_id": "87bMzbi85WKnoiuME3wK7g\u003d\u003d",
            "time_usec": 1481082853886992
},
        {
            "page_transition": "RELOAD",
            "title": "",
            "url": "https://www.google.com/maps/timeline?hl\u003den\u0026authuser\u003d0\u0026ved\u003d1t%3A17706\u0026pb\u003d!1m2!1m1!1s2016-12-06",
            "client_id": "87bMzbi85WKnoiuME3wK7g\u003d\u003d",
            "time_usec": 1481082764478287
},
        {
            "page_transition": "RELOAD",
            "title": "Timeline",
            "url": "https://www.google.com/maps/timeline?hl\u003den\u0026authuser\u003d0\u0026ved\u003d1t%3A17706\u0026pb\u003d!1m2!1m1!1s2016-12-06",
            "client_id": "87bMzbi85WKnoiuME3wK7g\u003d\u003d",
            "time_usec": 1481082057512256
},
        {
            "page_transition": "RELOAD",
            "title": "Timeline",
            "url": "https://www.google.com/maps/timeline?hl\u003den\u0026authuser\u003d0\u0026ved\u003d1t%3A17706\u0026pb\u003d!1m2!1m1!1s2016-12-06",
            "client_id": "87bMzbi85WKnoiuME3wK7g\u003d\u003d",
            "time_usec": 1481082026101171
},
        {
            "page_transition": "RELOAD",
            "title": "Timeline",
            "url": "https://www.google.com/maps/timeline?hl\u003den\u0026authuser\u003d0\u0026ved\u003d1t%3A17706\u0026pb\u003d!1m2!1m1!1s2016-12-06",
            "client_id": "87bMzbi85WKnoiuME3wK7g\u003d\u003d",
            "time_usec": 1481082010386053
},
        {
            "page_transition": "RELOAD",
            "title": "Timeline",
            "url": "https://www.google.com/maps/timeline?hl\u003den\u0026authuser\u003d0\u0026ved\u003d1t%3A17706\u0026pb\u003d!1m2!1m1!1s2016-12-06",
            "client_id": "87bMzbi85WKnoiuME3wK7g\u003d\u003d",
            "time_usec": 1481079779657208
},
        {
            "page_transition": "RELOAD",
            "title": "Timeline",
            "url": "https://www.google.com/maps/timeline?hl\u003den\u0026authuser\u003d0\u0026ved\u003d1t%3A17706\u0026pb\u003d!1m2!1m1!1s2016-12-06",
            "client_id": "87bMzbi85WKnoiuME3wK7g\u003d\u003d",
            "time_usec": 1481079350885079
},
        {
            "page_transition": "RELOAD",
            "title": "Timeline",
            "url": "https://www.google.com/maps/timeline?hl\u003den\u0026authuser\u003d0\u0026ved\u003d1t%3A17706\u0026pb\u003d!1m2!1m1!1s2016-12-06",
            "client_id": "87bMzbi85WKnoiuME3wK7g\u003d\u003d",
            "time_usec": 1481078820644546
},
        {
            "page_transition": "RELOAD",
            "title": "Timeline",
            "url": "https://www.google.com/maps/timeline?hl\u003den\u0026authuser\u003d0\u0026ved\u003d1t%3A17706\u0026pb\u003d!1m2!1m1!1s2016-12-06",
            "client_id": "87bMzbi85WKnoiuME3wK7g\u003d\u003d",
            "time_usec": 1481078685028553
},
        {
            "page_transition": "RELOAD",
            "title": "Timeline",
            "url": "https://www.google.com/maps/timeline?hl\u003den\u0026authuser\u003d0\u0026ved\u003d1t%3A17706\u0026pb\u003d!1m2!1m1!1s2016-12-06",
            "client_id": "87bMzbi85WKnoiuME3wK7g\u003d\u003d",
            "time_usec": 1481078396732557
},
        {
            "page_transition": "RELOAD",
            "title": "Timeline",
            "url": "https://www.google.com/maps/timeline?hl\u003den\u0026authuser\u003d0\u0026ved\u003d1t%3A17706\u0026pb\u003d!1m2!1m1!1s2016-12-06",
            "client_id": "87bMzbi85WKnoiuME3wK7g\u003d\u003d",
            "time_usec": 1481078052447477
},
        {
            "page_transition": "RELOAD",
            "title": "Timeline",
            "url": "https://www.google.com/maps/timeline?hl\u003den\u0026authuser\u003d0\u0026ved\u003d1t%3A17706\u0026pb\u003d!1m2!1m1!1s2016-12-06",
            "client_id": "87bMzbi85WKnoiuME3wK7g\u003d\u003d",
            "time_usec": 1481077860744021
},
        {
            "page_transition": "RELOAD",
            "title": "Timeline",
            "url": "https://www.google.com/maps/timeline?hl\u003den\u0026authuser\u003d0\u0026ved\u003d1t%3A17706\u0026pb\u003d!1m2!1m1!1s2016-12-06",
            "client_id": "87bMzbi85WKnoiuME3wK7g\u003d\u003d",
            "time_usec": 1481077719552389
},
        {
            "page_transition": "RELOAD",
            "title": "Timeline",
            "url": "https://www.google.com/maps/timeline?hl\u003den\u0026authuser\u003d0\u0026ved\u003d1t%3A17706\u0026pb\u003d!1m2!1m1!1s2016-12-06",
            "client_id": "87bMzbi85WKnoiuME3wK7g\u003d\u003d",
            "time_usec": 1481077703279841
},
        {
            "page_transition": "RELOAD",
            "title": "Timeline",
            "url": "https://www.google.com/maps/timeline?hl\u003den\u0026authuser\u003d0\u0026ved\u003d1t%3A17706\u0026pb\u003d!1m2!1m1!1s2016-12-06",
            "client_id": "87bMzbi85WKnoiuME3wK7g\u003d\u003d",
            "time_usec": 1481077684708210
},
        {
            "page_transition": "RELOAD",
            "title": "Timeline",
            "url": "https://www.google.com/maps/timeline?hl\u003den\u0026authuser\u003d0\u0026ved\u003d1t%3A17706\u0026pb\u003d!1m2!1m1!1s2016-12-06",
            "client_id": "87bMzbi85WKnoiuME3wK7g\u003d\u003d",
            "time_usec": 1481057568439159
},
        {
            "page_transition": "RELOAD",
            "title": "Timeline",
            "url": "https://www.google.com/maps/timeline?hl\u003den\u0026authuser\u003d0\u0026ved\u003d1t%3A17706\u0026pb\u003d!1m2!1m1!1s2016-12-06",
            "client_id": "87bMzbi85WKnoiuME3wK7g\u003d\u003d",
            "time_usec": 1481057554378156
},
        {
            "page_transition": "LINK",
            "title": "Timeline",
            "url": "https://www.google.com/maps/timeline?hl\u003den\u0026authuser\u003d0\u0026ved\u003d1t%3A17706\u0026pb\u003d!1m2!1m1!1s2016-12-06",
            "client_id": "87bMzbi85WKnoiuME3wK7g\u003d\u003d",
            "time_usec": 1481057493129006
},
        {
            "page_transition": "LINK",
            "title": "Timeline",
            "url": "https://www.google.com/maps/timeline?hl\u003den\u0026authuser\u003d0\u0026ved\u003d1t%3A17706\u0026pb\u003d!1m2!1m1!1s2016-12-03",
